{
"type": "FeatureCollection",
"name": "trader_joes_locations",
"crs": { "type": "name", "properties": { "name": "urn:ogc:def:crs:OGC:1.3:CRS84" } },
"features": [
{ "type": "Feature", "properties": { "store_name": "72nd & Broadway (542)", "address": "2073 Broadway", "borough": "Manhattan", "zip_code": "10023", "full_address": "2073 Broadway, Manhattan, NY 10023", "location": "Trader Joe's, 2073, Broadway, Manhattan Community Board 7, Manhattan, New York County, New York, 10023, United States", "latitude": 40.7785925, "longitude": -73.9822755 }, "geometry": { "type": "Point", "coordinates": [ -73.9822755, 40.7785925 ] } },
{ "type": "Feature", "properties": { "store_name": "Chelsea (543)", "address": "675 6th Ave", "borough": "Manhattan", "zip_code": "10010", "full_address": "675 6th Ave, Manhattan, NY 10010", "location": "Michaels, 675, 6th Avenue, Chelsea District, Manhattan Community Board 4, Manhattan, New York County, New York, 10010, United States", "latitude": 40.7420727, "longitude": -73.9936765 }, "geometry": { "type": "Point", "coordinates": [ -73.9936765, 40.7420727 ] } },
{ "type": "Feature", "properties": { "store_name": "East Village (546)", "address": "436 East 14th St", "borough": "Manhattan", "zip_code": "10009", "full_address": "436 East 14th St, Manhattan, NY 10009", "location": "Trader Joe's, 436, East 14th Street, East Village, Manhattan Community Board 3, Manhattan, New York County, New York, 10009, United States", "latitude": 40.7305095, "longitude": -73.9810994 }, "geometry": { "type": "Point", "coordinates": [ -73.9810994, 40.7305095 ] } },
{ "type": "Feature", "properties": { "store_name": "Essex Crossing (538)", "address": "400 Grand St. (Cellar)", "borough": "Manhattan", "zip_code": "10002", "full_address": "400 Grand St, Manhattan, NY 10002", "location": "Trader Joe's, 400, Grand Street, Lower East Side, Manhattan Community Board 3, Manhattan, New York County, New York, 10002, United States", "latitude": 40.7161587, "longitude": -73.9867257 }, "geometry": { "type": "Point", "coordinates": [ -73.9867257, 40.7161587 ] } },
{ "type": "Feature", "properties": { "store_name": "Harlem (576)", "address": "123 W 125th St", "borough": "Manhattan", "zip_code": "10027", "full_address": "123 W 125th St, Manhattan, NY 10027", "location": "123, West 125th Street, Harlem, Manhattan Community Board 10, Manhattan, New York County, New York, 10027, United States", "latitude": 40.8081472, "longitude": -73.9461467 }, "geometry": { "type": "Point", "coordinates": [ -73.9461467, 40.8081472 ] } },
{ "type": "Feature", "properties": { "store_name": "New York - Murray Hill (544)", "address": "200 E 32nd St", "borough": "Manhattan", "zip_code": "10016", "full_address": "200 E 32nd St, Manhattan, NY 10016", "location": "The Future, 200, East 32nd Street, Manhattan Community Board 6, Manhattan, New York County, New York, 10016, United States", "latitude": 40.7439285, "longitude": -73.9790227 }, "geometry": { "type": "Point", "coordinates": [ -73.9790227, 40.7439285 ] } },
{ "type": "Feature", "properties": { "store_name": "SoHo (539)", "address": "233 Spring Street", "borough": "Manhattan", "zip_code": "10013", "full_address": "233 Spring Street, Manhattan, NY 10013", "location": "Trader Joe's, 233, Spring Street, Hudson Square, Manhattan, New York County, New York, 10013, United States", "latitude": 40.7257088, "longitude": -74.0048369 }, "geometry": { "type": "Point", "coordinates": [ -74.0048369, 40.7257088 ] } },
{ "type": "Feature", "properties": { "store_name": "Union Square (540)", "address": "142 E 14th St", "borough": "Manhattan", "zip_code": "10003", "full_address": "142 E 14th St, Manhattan, NY 10003", "location": "Trader Joe's, 142, East 14th Street, East Village, Manhattan Community Board 3, Manhattan, New York County, New York, 10003, United States", "latitude": 40.7334209, "longitude": -73.987875 }, "geometry": { "type": "Point", "coordinates": [ -73.987875, 40.7334209 ] } },
{ "type": "Feature", "properties": { "store_name": "Upper East Side - Bridgemarket (571)", "address": "405 E. 59th Street", "borough": "Manhattan", "zip_code": "10022", "full_address": "405 E. 59th Street, Manhattan, NY 10022", "location": "Trader Joe's, 405, East 59th Street, Manhattan Community Board 8, Manhattan, New York County, New York, 10022, United States", "latitude": 40.7596586, "longitude": -73.9613341 }, "geometry": { "type": "Point", "coordinates": [ -73.9613341, 40.7596586 ] } },
{ "type": "Feature", "properties": { "store_name": "Upper West Side (545)", "address": "670 Columbus Ave", "borough": "Manhattan", "zip_code": "10025", "full_address": "670 Columbus Ave, Manhattan, NY 10025", "location": "Trader Joe's, 670, Columbus Avenue, Upper West Side, Manhattan Community Board 7, Manhattan, New York County, New York, 10025, United States", "latitude": 40.7908664, "longitude": -73.9692378 }, "geometry": { "type": "Point", "coordinates": [ -73.9692378, 40.7908664 ] } },
{ "type": "Feature", "properties": { "store_name": "Brooklyn - City Point (547)", "address": "445 Gold St", "borough": "Brooklyn", "zip_code": "11201", "full_address": "445 Gold St, Brooklyn, NY 11201", "location": "One Medical: City Point Brooklyn, 445, Gold Street, Downtown Brooklyn, Brooklyn, Kings County, New York, 11201, United States", "latitude": 40.693314, "longitude": -73.9833812 }, "geometry": { "type": "Point", "coordinates": [ -73.9833812, 40.693314 ] } },
{ "type": "Feature", "properties": { "store_name": "Brooklyn - Williamsburg (548)", "address": "200 Kent Ave", "borough": "Brooklyn", "zip_code": "11249", "full_address": "200 Kent Ave, Brooklyn, NY 11249", "location": "Ever/Body Williamsburg, 200, Kent Avenue, Brooklyn, Kings County, New York, 11249, United States", "latitude": 40.716489, "longitude": -73.9660311 }, "geometry": { "type": "Point", "coordinates": [ -73.9660311, 40.716489 ] } },
{ "type": "Feature", "properties": { "store_name": "Brooklyn (558)", "address": "130 Court St", "borough": "Brooklyn", "zip_code": "11201", "full_address": "130 Court St, Brooklyn, NY 11201", "location": "Trader Joe's, 130, Court Street, Cobble Hill Historic District, Brooklyn, Kings County, New York, 11201, United States", "latitude": 40.6895208, "longitude": -73.9928556 }, "geometry": { "type": "Point", "coordinates": [ -73.9928556, 40.6895208 ] } },
{ "type": "Feature", "properties": { "store_name": "Forest Hills (578)", "address": "69-65 Yellowstone Blvd", "borough": "Queens", "zip_code": "11375", "full_address": "69-65 Yellowstone Blvd, Queens, NY 11375", "location": "Trader Joe's, 69-65, Yellowstone Boulevard, Forest Hills, Queens, Queens County, New York, 11375, United States", "latitude": 40.7226474, "longitude": -73.848109 }, "geometry": { "type": "Point", "coordinates": [ -73.848109, 40.7226474 ] } },
{ "type": "Feature", "properties": { "store_name": "Long Island City (565)", "address": "22-43 Jackson Ave", "borough": "Queens", "zip_code": "11101", "full_address": "22-43 Jackson Ave, Queens, NY 11101", "location": "22-43, Jackson Avenue, Court Square, Long Island City, Queens, Queens County, New York, 11101, United States", "latitude": 40.7458476, "longitude": -73.9462749 }, "geometry": { "type": "Point", "coordinates": [ -73.9462749, 40.7458476 ] } },
{ "type": "Feature", "properties": { "store_name": "Rego Park (557)", "address": "9030 Metropolitan Ave", "borough": "Queens", "zip_code": "11374", "full_address": "9030 Metropolitan Ave, Queens, NY 11374", "location": "Michaels, 9030, Metropolitan Avenue, Rego Park, Queens, Queens County, New York, 11374, United States", "latitude": 40.7111348, "longitude": -73.8582922 }, "geometry": { "type": "Point", "coordinates": [ -73.8582922, 40.7111348 ] } },
{ "type": "Feature", "properties": { "store_name": "Staten Island - South Shore (580)", "address": "6400 Amboy Rd", "borough": "Staten Island", "zip_code": "10309", "full_address": "6400 Amboy Rd, Staten Island, NY 10309", "location": "6400, Amboy Road, Pleasant Plains, Staten Island, Richmond County, New York, 10309, United States", "latitude": 40.5216877, "longitude": -74.2169055 }, "geometry": { "type": "Point", "coordinates": [ -74.2169055, 40.5216877 ] } },
{ "type": "Feature", "properties": { "store_name": "Staten Island (559)", "address": "2385 Richmond Ave", "borough": "Staten Island", "zip_code": "10314", "full_address": "2385 Richmond Ave, Staten Island, NY 10314", "location": "Trader Joe's, 2385, Richmond Avenue, New Springville, Staten Island, Richmond County, New York, 10314, United States", "latitude": 40.5899749, "longitude": -74.1658103 }, "geometry": { "type": "Point", "coordinates": [ -74.1658103, 40.5899749 ] } }
]
}
